Fuel Type Code,Station Name,Street Address,Intersection Directions,City,State,ZIP,Plus4,Station Phone,Status Code,Expected Date,Groups With Access Code,Access Days Time,Cards Accepted,BD Blends,NG Fill Type Code,NG PSI,EV Level1 EVSE Num,EV Level2 EVSE Num,EV DC Fast Count,EV Other Info,EV Network,EV Network Web,Geocode Status,Latitude,Longitude,Date Last Confirmed,ID,Updated At,Owner Type Code,Federal Agency ID,Federal Agency Name,Open Date,Hydrogen Status Link,NG Vehicle Class,LPG Primary,E85 Blender Pump,EV Connector Types,Country,Intersection Directions (French),Access Days Time (French),BD Blends (French),Groups With Access Code (French),Hydrogen Is Retail,Access Code,Access Detail Code,Federal Agency Code,Facility Type,CNG Dispenser Num,CNG On-Site Renewable Source,CNG Total Compression Capacity,CNG Storage Capacity,LNG On-Site Renewable Source,E85 Other Ethanol Blends,EV Pricing,EV Pricing (French),LPG Nozzle Types,Hydrogen Pressures,Hydrogen Standards,CNG Fill Type Code,CNG PSI,CNG Vehicle Class,LNG Vehicle Class,EV On-Site Renewable Source,Restricted Access
ELEC,Channel Center Garage,116 W First St,,Boston,MA,02127,,617-269-1830,E,,Public,Garage business hours; pay lot,,,,,,8,,,Non-Networked,,200-8,42.342653,-71.05163,2021-10-12,82458,2022-02-10 19:42:29 UTC,P,,,2015-04-01,,,,,J1772 TESLA,US,,,,Public,,public,,,PAY_GARAGE,,,,,,,"$23 early bird (before 9am), $30 after, regardless of charging time. Pay at garage office.",,,,,,,,,,false
ELEC,Auburn Mall - Tesla Supercharger,385 Southbridge St.,,Auburn,MA,01501,,877-798-3752,E,,Public,24 hours daily; for Tesla use only,,,,,,,8,,Tesla,https://www.tesla.com/supercharger,200-9,42.203734,-71.833059,2022-10-03,102195,2022-12-01 17:40:26 UTC,P,,,2015-01-01,,,,,TESLA,US,,,,Public,,public,,,,,,,,,,$0.28 per kWh; $0.26 per minute above 60 kW and $0.13 per minute at or below 60 kW,,,,,,,,,,
ELEC,South Bay Town Center - Tesla Supercharger,101 Allstate Road,,Boston,MA,02125,,877-798-3752,E,,Public,24 hours daily; for Tesla use only,,,,,,,10,,Tesla,https://www.tesla.com/supercharger,200-9,42.3255,-71.0633,2022-10-03,102196,2022-12-01 17:40:26 UTC,P,,,2018-07-23,,,,,TESLA,US,,,,Public,,public,,,,,,,,,,$0.28 per kWh; $0.26 per minute above 60 kW and $0.13 per minute at or below 60 kW,,,,,,,,,,
ELEC,The Prudential Center - Tesla Supercharger,800 Boylston Street,,Boston,MA,02199,,877-798-3752,E,,Public,24 hours daily; for Tesla use only,,,,,,,8,,Tesla,https://www.tesla.com/supercharger,200-8,42.34717,-71.081003,2022-10-03,102197,2022-12-01 17:40:26 UTC,P,,,2018-07-23,,,,,TESLA,US,,,,Public,,public,,,,,,,,,,$0.28 per kWh; $0.26 per minute above 60 kW and $0.13 per minute at or below 60 kW,,,,,,,,,,
ELEC,"Cambridge, MA - Tesla Supercharger",100 Cambridgeside Place,,Cambridge,MA,02141,,877-798-3752,E,,Public,24 hours daily; for Tesla use only,,,,,,,8,,Tesla,https://www.tesla.com/supercharger,200-9,42.3685,-71.0762,2022-10-03,102198,2022-12-01 17:40:26 UTC,P,,,2018-07-23,,,,,TESLA,US,,,,Public,,public,,,,,,,,,,$0.28 per kWh; $0.26 per minute above 60 kW and $0.13 per minute at or below 60 kW,,,,,,,,,,
ELEC,Tesla Service Center Dedham - Tesla Supercharger,840 Providence Highway,,Dedham,MA,02026,,877-798-3752,E,,Public,24 hours daily; for Tesla use only,,,,,,,8,,Tesla,https://www.tesla.com/supercharger,200-9,42.236461,-71.178325,2022-10-03,102199,2022-12-01 17:40:26 UTC,P,,,2015-05-01,,,,,TESLA,US,,,,Public,,public,,,,,,,,,,$0.28 per kWh; $0.26 per minute above 60 kW and $0.13 per minute at or below 60 kW,,,,,,,,,,
ELEC,Shopper's World - Tesla Supercharger,1 Worcester Rd,,Framingham,MA,01701,,877-798-3752,E,,Public,24 hours daily; for Tesla use only,,,,,,,12,,Tesla,https://www.tesla.com/supercharger,200-8,42.303647,-71.394175,2022-10-03,102200,2022-12-01 17:40:26 UTC,P,,,2018-07-23,,,,,TESLA,US,,,,Public,,public,,,,,,,,,,$0.28 per kWh; $0.26 per minute above 60 kW and $0.13 per minute at or below 60 kW,,,,,,,,,,
ELEC,Pride Store - Tesla Supercharger,25 Russell Street,,Hadley,MA,01035,,877-798-3752,E,,Public,24 hours daily; for Tesla use only,,,,,,,12,,Tesla,https://www.tesla.com/supercharger,200-9,42.338748,-72.609253,2022-10-03,102201,2022-12-01 17:40:26 UTC,P,,,2018-07-23,,,,,TESLA,US,,,,Public,,public,,,,,,,,,,$0.28 per kWh; $0.26 per minute above 60 kW and $0.13 per minute at or below 60 kW,,,,,,,,,,
ELEC,Big Y Supermarket - Tesla Supercharger,10 Pleasant St.,,Lee,MA,01238,,877-798-3752,E,,Public,24 hours daily; for Tesla use only,,,,,,,8,,Tesla,https://www.tesla.com/supercharger,200-9,42.295745,-73.239226,2022-10-03,102202,2022-12-01 17:40:26 UTC,P,,,2016-09-01,,,,,TESLA,US,,,,Public,,public,,,,,,,,,,$0.28 per kWh; $0.26 per minute above 60 kW and $0.13 per minute at or below 60 kW,,,,,,,,,,
ELEC,The Mall at Whitney Field - Tesla Supercharger,100 Commercial Road,,Leominster,MA,01453,,877-798-3752,E,,Public,24 hours daily; for Tesla use only,,,,,,,8,,Tesla,https://www.tesla.com/supercharger,200-9,42.529592,-71.744201,2022-10-03,102203,2022-12-01 17:40:26 UTC,P,,,2018-07-23,,,,,TESLA,US,,,,Public,,public,,,,,,,,,,$0.28 per kWh; $0.26 per minute above 60 kW and $0.13 per minute at or below 60 kW,,,,,,,,,,
ELEC,Mansfield Crossing - Tesla Supercharger,280 School Street,,Mansfield,MA,02048,,877-798-3752,E,,Public,24 hours daily; for Tesla use only,,,,,,,8,,Tesla,https://www.tesla.com/supercharger,200-9,42.013724,-71.23175,2022-10-03,102204,2022-12-01 17:40:26 UTC,P,,,2018-07-23,,,,,TESLA,US,,,,Public,,public,,,,,,,,,,$0.28 per kWh; $0.26 per minute above 60 kW and $0.13 per minute at or below 60 kW,,,,,,,,,,
ELEC,Dunkin' Donuts - Tesla Supercharger,22 Meetinghouse Lane,,Sagamore Beach,MA,02562,,877-798-3752,E,,Public,24 hours daily; for Tesla use only,,,,,,,8,,Tesla,https://www.tesla.com/supercharger,200-9,41.781195,-70.540289,2022-10-03,102205,2022-12-01 17:40:26 UTC,P,,,2015-01-01,,,,,TESLA,US,,,,Public,,public,,,,,,,,,,$0.28 per kWh; $0.26 per minute above 60 kW and $0.13 per minute at or below 60 kW,,,,,,,,,,
ELEC,Riverdale Shops - Tesla Supercharger,935 Riverdale Street,,West Springfield,MA,01089,,877-798-3752,E,,Public,24 hours daily; for Tesla use only,,,,,,,8,,Tesla,https://www.tesla.com/supercharger,200-9,42.130914,-72.621435,2022-10-03,102206,2022-12-01 17:40:26 UTC,P,,,2018-07-23,,,,,TESLA,US,,,,Public,,public,,,,,,,,,,$0.28 per kWh; $0.26 per minute above 60 kW and $0.13 per minute at or below 60 kW,,,,,,,,,,
ELEC,Swissbakers Inc. - Tesla Destination,168 Western Ave,,Allston,MA,02134,,617-903-3113  877-798-3752,E,,Public,24 hours daily; for customer use only,,,,,,2,,,Tesla Destination,https://www.tesla.com/destination-charging,200-9,42.36293,-71.128439,2020-11-03,114317,2021-03-11 23:22:17 UTC,P,,,2016-05-01,,,,,J1772 TESLA,US,,,,Public,,public,,,RESTAURANT,,,,,,,Free,,,,,,,,,,
ELEC,Hampton Inn Amesbury - Tesla Destination,284  Elm St,,Amesbury,MA,01913,,978-834-5080  877-798-3752,E,,Public - Call ahead,24 hours daily; for customer use only,,,,,,2,,,Tesla Destination,https://www.tesla.com/destination-charging,200-9,42.847566,-70.90827,2020-11-03,114318,2021-03-11 23:22:17 UTC,P,,,2017-09-01,,,,,J1772 TESLA,US,,,,Public - Appeler à l'avance,,public,CALL,,HOTEL,,,,,,,Free,,,,,,,,,,
ELEC,Doubletree by Hilton Cape Cod - Hyannis - Tesla Destination,287 Iyannough Rd,,Barnstable,MA,02601,,1 508-771-1700  877-798-3752,E,,Public,24 hours daily; for customer use only; see front desk for access,,,,,,2,,,Tesla Destination,https://www.tesla.com/destination-charging,200-9,41.661139,-70.2803,2020-11-03,114319,2021-03-11 23:22:17 UTC,P,,,2015-11-01,,,,,J1772 TESLA,US,,,,Public,,public,,,HOTEL,,,,,,,Free,,,,,,,,,,
ELEC,The Westin Copley Place - Tesla Destination,10 Huntington Ave,,Boston,MA,02116,,617-262-9600  877-798-3752,E,,Public,24 hours daily; for customer use only; see valet for access,,,,,,2,,,Tesla Destination,https://www.tesla.com/destination-charging,200-9,42.348567,-71.077311,2020-11-03,114320,2021-03-11 23:22:17 UTC,P,,,2016-08-15,,,,,J1772 TESLA,US,,,,Public,,public,,,HOTEL,,,,,,,Free,,,,,,,,,,
ELEC,W Boston Hotel Hotel & Residences - Tesla Destination,100 Stuart St,,Boston,MA,02116,,617-261-8700  877-798-3752,E,,Public,24 hours daily; for customer use only; see valet for access,,,,,,3,,,Tesla Destination,https://www.tesla.com/destination-charging,200-9,42.350937,-71.065558,2020-11-03,114321,2021-03-11 23:22:17 UTC,P,,,2015-11-01,,,,,J1772 TESLA,US,,,,Public,,public,,,HOTEL,,,,,,,Free,,,,,,,,,,
ELEC,Four Seasons Hotel Boston - Tesla Destination,200 Boylston St,,Boston,MA,02116,,617-338-4400  877-798-3752,E,,Public,24 hours daily; for customer use only; see valet for access,,,,,,2,,,Tesla Destination,https://www.tesla.com/destination-charging,200-9,42.352269,-71.068005,2020-11-03,114322,2021-03-11 23:22:17 UTC,P,,,2015-12-01,,,,,TESLA,US,,,,Public,,public,,,HOTEL,,,,,,,Free,,,,,,,,,,
ELEC,DoubleTree Club by Hilton Boston-Bayside - Tesla Destination,240 Mount Vernon St,,Boston,MA,02125,,617-822-3600  877-798-3752,E,,Public,24 hours daily; for customer use only,,,,,,2,,,Tesla Destination,https://www.tesla.com/destination-charging,200-9,42.319148,-71.045934,2020-11-03,114323,2021-03-11 23:22:17 UTC,P,,,2016-08-15,,,,,J1772 TESLA,US,,,,Public,,public,,,HOTEL,,,,,,,Free,,,,,,,,,,
ELEC,Millennium Bostonian Hotel - Tesla Destination,26 North St,,Boston,MA,02109,,617-523-3600  877-798-3752,E,,Public,24 hours daily; see valet for access,,,,,,3,,,Tesla Destination,https://www.tesla.com/destination-charging,200-9,42.360797,-71.056261,2020-11-03,114324,2021-03-11 23:22:17 UTC,P,,,2015-11-01,,,,,J1772 TESLA,US,,,,Public,,public,,,HOTEL,,,,,,,Free,,,,,,,,,,
ELEC,Sheraton Boston Hotel - Tesla Destination,39 Dalton St,,Boston,MA,02199,,617-236-2000  877-798-3752,E,,Public,24 hours daily; for customer use only; see valet for access,,,,,,2,,,Tesla Destination,https://www.tesla.com/destination-charging,200-8,42.346202,-71.084527,2020-11-03,114325,2021-03-11 23:22:17 UTC,P,,,2015-12-01,,,,,J1772 TESLA,US,,,,Public,,public,,,HOTEL,,,,,,,Free,,,,,,,,,,
ELEC,The Lenox Hotel - Tesla Destination,61 Exeter St,,Boston,MA,02116,,617-536-5300  877-798-3752,E,,Public,24 hours daily; see valet for access,,,,,,1,,,Tesla Destination,https://www.tesla.com/destination-charging,200-9,42.349229,-71.079528,2020-11-03,114326,2021-03-11 23:22:17 UTC,P,,,2017-03-01,,,,,TESLA,US,,,,Public,,public,,,HOTEL,,,,,,,Free,,,,,,,,,,
ELEC,"Mandarin Oriental, Boston - Tesla Destination",776 Boylston St,,Boston,MA,02199,,617-535-8888  877-798-3752,E,,Public,24 hours daily; for customer use only; see valet for access,,,,,,4,,,Tesla Destination,https://www.tesla.com/destination-charging,200-9,42.348687,-71.081645,2020-11-03,114327,2021-03-11 23:22:17 UTC,P,,,2018-11-01,,,,,TESLA,US,,,,Public,,public,,,HOTEL,,,,,,,Free,,,,,,,,,,
ELEC,DoubleTree by Hilton Boston - Downtown - Tesla Destination,821 Washington St,,Boston,MA,02111,,617-956-7900  877-798-3752,E,,Public,24 hours daily; for customer use only; see valet for access,,,,,,2,,,Tesla Destination,https://www.tesla.com/destination-charging,200-9,42.348863,-71.064781,2020-11-03,114328,2021-03-11 23:22:17 UTC,P,,,2015-10-01,,,,,J1772 TESLA,US,,,,Public,,public,,,HOTEL,,,,,,,Free,,,,,,,,,,
ELEC,Kimpton Nine Zero Hotel - Tesla Destination,90 Tremont St,,Boston,MA,02108,,617-772-5800  877-798-3752,E,,Public,24 hours daily; see valet for access,,,,,,3,,,Tesla Destination,https://www.tesla.com/destination-charging,200-9,42.357362,-71.060688,2020-11-03,114329,2021-03-11 23:22:17 UTC,P,,,2016-05-01,,,,,J1772 TESLA,US,,,,Public,,public,,,HOTEL,,,,,,,Free,,,,,,,,,,
ELEC,Captain Freeman Inn - Tesla Destination,15 Breakwater Rd,,Brewster,MA,02631,,508-896-7481  877-798-3752,E,,Public - Call ahead,24 hours daily; for customer use only,,,,,,1,,,Tesla Destination,https://www.tesla.com/destination-charging,200-9,41.761856,-70.083124,2020-11-03,114330,2021-03-11 23:22:17 UTC,P,,,2017-09-01,,,,,TESLA,US,,,,Public - Appeler à l'avance,,public,CALL,,INN,,,,,,,Free,,,,,,,,,,
ELEC,Residence Inn by Marriott - Tesla Destination,500 Memorial Dr,,Chicopee,MA,01020,,413-331-4440  877-798-3752,E,,Public,24 hours daily; for customer use only; see front desk for access,,,,,,2,,,Tesla Destination,https://www.tesla.com/destination-charging,200-9,42.172273,-72.579497,2020-11-03,114332,2021-03-11 23:22:17 UTC,P,,,2015-10-01,,,,,TESLA,US,,,,Public,,public,,,HOTEL,,,,,,,Free,,,,,,,,,,
ELEC,Rectrix Aviation - Tesla Destination,777  Virginia Rd,,Concord,MA,01742,,978-341-8400  877-798-3752,E,,Public - Call ahead,24 hours daily; for customer use only,,,,,,1,,,Tesla Destination,https://www.tesla.com/destination-charging,200-9,42.464494,-71.299243,2020-11-03,114333,2021-03-11 23:22:17 UTC,P,,,2016-05-01,,,,,TESLA,US,,,,Public - Appeler à l'avance,,public,CALL,,AIRPORT,,,,,,,Free,,,,,,,,,,
ELEC,The Harbor View Hotel - Tesla Destination,131 N Water St,,Edgartown,MA,02539,,508-627-7000  877-798-3752,E,,Public,24 hours daily; for customer use only; see front desk for access,,,,,,1,,,Tesla Destination,https://www.tesla.com/destination-charging,200-9,41.393032,-70.506935,2020-11-03,114334,2021-03-11 23:22:17 UTC,P,,,2015-11-01,,,,,TESLA,US,,,,Public,,public,,,HOTEL,,,,,,,Free,,,,,,,,,,
ELEC,The Golf Club of Cape Cod - Tesla Destination,132 Falmouth Rd,,Falmouth,MA,02536,,508-457-7200  877-798-3752,E,,Public,24 hours daily; for customer use only; see front desk for access,,,,,,2,,,Tesla Destination,https://www.tesla.com/destination-charging,GPS,41.631265,-70.594347,2020-11-03,114335,2021-03-11 23:22:17 UTC,P,,,2015-10-01,,,,,TESLA,US,,,,Public,,public,,,REC_SPORTS_FACILITY,,,,,,,Free,,,,,,,,,,
ELEC,"The Palmer House Inn, a Select Registry Property - Tesla Destination",81 Palmer Ave,,Falmouth,MA,02540,,508-548-1230  877-798-3752,E,,Public,24 hours daily; for customer use only; see front desk for access,,,,,,2,,,Tesla Destination,https://www.tesla.com/destination-charging,200-9,41.555519,-70.62019,2020-11-03,114336,2021-03-11 23:22:17 UTC,P,,,2015-11-01,,,,,TESLA,US,,,,Public,,public,,,INN,,,,,,,Free,,,,,,,,,,
ELEC,Jiminy Peak Mountain Resort - Tesla Destination,37 Corey Rd,,Hancock,MA,01237,,413-738-5500  877-798-3752,E,,Public,24 hours daily; for customer use only; see front desk for access,,,,,,4,,,Tesla Destination,https://www.tesla.com/destination-charging,200-9,42.55585,-73.290972,2020-11-03,114337,2021-03-11 23:22:17 UTC,P,,,2018-11-01,,,,,J1772 TESLA,US,,,,Public,,public,,,HOTEL,,,,,,,Free,,,,,,,,,,
ELEC,Wequassett Resort and Golf Club - Tesla Destination,2173 MA-28,,Harwich,MA,02645,,800-225-7125  877-798-3752,E,,Public - Call ahead,24 hours daily; for customer use only,,,,,,3,,,Tesla Destination,https://www.tesla.com/destination-charging,200-9,41.722628,-69.996093,2020-11-03,114338,2021-03-11 23:22:17 UTC,P,,,2017-03-01,,,,,J1772 TESLA,US,,,,Public - Appeler à l'avance,,public,CALL,,HOTEL,,,,,,,Free,,,,,,,,,,
ELEC,"Applegate Inn, a Select Registry Property - Tesla Destination",279 W Park St,,Lee,MA,01238,,413-243-4451  877-798-3752,E,,Public,24 hours daily; for customer use only; see front desk for access,,,,,,2,,,Tesla Destination,https://www.tesla.com/destination-charging,200-9,42.301083,-73.258542,2020-11-03,114339,2021-03-11 23:22:17 UTC,P,,,2015-11-01,,,,,J1772 TESLA,US,,,,Public,,public,,,INN,,,,,,,Free,,,,,,,,,,
ELEC,"The Inn at Stockbridge, a Select Registry Property - Tesla Destination",30  East St,,Lee,MA,01238,,413-298-3337  877-798-3752,E,,Public,24 hours daily; for customer use only; see front desk for access,,,,,,2,,,Tesla Destination,https://www.tesla.com/destination-charging,200-9,42.304763,-73.221919,2020-11-03,114340,2021-03-11 23:22:17 UTC,P,,,2015-12-01,,,,,J1772 TESLA,US,,,,Public,,public,,,INN,,,,,,,Free,,,,,,,,,,
ELEC,"Devonfield Inn, a Select Registry Property - Tesla Destination",85 Stockbridge Rd,,Lee,MA,01238,,413-243-3298  877-798-3752,E,,Public,24 hours daily; for customer use only; see front desk for access,,,,,,1,,,Tesla Destination,https://www.tesla.com/destination-charging,200-9,42.30095,-73.263943,2020-11-03,114341,2021-03-11 23:22:17 UTC,P,,,2015-12-01,,,,,TESLA,US,,,,Public,,public,,,INN,,,,,,,Free,,,,,,,,,,
ELEC,"Brook Farm Inn, a Select Registry Property - Tesla Destination",15 Hawthorne St,,Lenox,MA,01240,,413-637-3013  877-798-3752,E,,Public,24 hours daily; for customer use only; see front desk for access,,,,,,2,,,Tesla Destination,https://www.tesla.com/destination-charging,200-9,42.352589,-73.288518,2020-11-03,114342,2021-03-11 23:22:17 UTC,P,,,2015-11-01,,,,,J1772 TESLA,US,,,,Public,,public,,,INN,,,,,,,Free,,,,,,,,,,
ELEC,"Gateways Inn, a Select Registry Property - Tesla Destination",51 Walker St,,Lenox,MA,01240,,413-637-2352  877-798-3752,E,,Public,24 hours daily; see front desk for access,,,,,,2,,,Tesla Destination,https://www.tesla.com/destination-charging,200-9,42.355928,-73.282592,2020-11-03,114343,2021-03-11 23:22:17 UTC,P,,,2015-10-01,,,,,J1772 TESLA,US,,,,Public,,public,,,INN,,,,,,,Free,,,,,,,,,,
ELEC,"Cranwell Resort, Spa & Golf Club - Tesla Destination",55  Lee Rd,,Lenox,MA,01240,,413-881-1621  877-798-3752,E,,Public - Call ahead,24 hours daily; for customer use only,,,,,,2,,,Tesla Destination,https://www.tesla.com/destination-charging,200-8,42.340328,-73.268624,2020-11-03,114344,2021-03-11 23:22:17 UTC,P,,,2017-09-01,,,,,TESLA,US,,,,Public - Appeler à l'avance,,public,CALL,,HOTEL,,,,,,,Free,,,,,,,,,,
ELEC,Blantyre - Tesla Destination,6 Blantyre Rd,,Lenox,MA,01240,,413-637-3556  877-798-3752,E,,Public - Call ahead,24 hours daily; for customer use only,,,,,,1,,,Tesla Destination,https://www.tesla.com/destination-charging,200-8,42.339036,-73.256307,2020-11-03,114345,2021-03-11 23:22:17 UTC,P,,,2015-10-01,,,,,TESLA,US,,,,Public - Appeler à l'avance,,public,CALL,,HOTEL,,,,,,,Free,,,,,,,,,,
ELEC,"Birchwood Inn, a Select Registry Property - Tesla Destination",7 Hubbard St,,Lenox,MA,01240,,800-524-1646  877-798-3752,E,,Public,24 hours daily; for customer use only; see front desk for access,,,,,,2,,,Tesla Destination,https://www.tesla.com/destination-charging,200-9,42.363027,-73.281626,2020-11-03,114346,2021-03-11 23:22:17 UTC,P,,,2015-12-01,,,,,J1772 TESLA,US,,,,Public,,public,,,INN,,,,,,,Free,,,,,,,,,,
ELEC,Hampton Terrace Inn - Tesla Destination,91 Walker St,,Lenox,MA,01240,,413-637-1773  877-798-3752,E,,Public - Call ahead,24 hours daily; for customer use only,,,,,,2,,,Tesla Destination,https://www.tesla.com/destination-charging,200-9,42.355164,-73.280905,2020-11-03,114347,2021-03-11 23:22:17 UTC,P,,,2018-11-01,,,,,TESLA,US,,,,Public - Appeler à l'avance,,public,CALL,,INN,,,,,,,Free,,,,,,,,,,
ELEC,"Harbor Light Inn, a Select Registry Property - Tesla Destination",58 Washington St,,Marblehead,MA,01945,,781-631-2186  877-798-3752,E,,Public,24 hours daily; for customer use only; see front desk for access,,,,,,2,,,Tesla Destination,https://www.tesla.com/destination-charging,200-9,42.506063,-70.848242,2020-11-03,114348,2021-03-11 23:22:17 UTC,P,,,2015-12-01,,,,,J1772 TESLA,US,,,,Public,,public,,,INN,,,,,,,Free,,,,,,,,,,
ELEC,Mashpee Commons - Tesla Destination,22 Steeple St,,Mashpee,MA,02649,,508-477-5400  877-798-3752,E,,Public,24 hours daily,,,,,,2,,,Tesla Destination,https://www.tesla.com/destination-charging,200-9,41.616861,-70.491357,2020-11-03,114349,2021-03-11 23:22:17 UTC,P,,,2018-11-01,,,,,TESLA,US,,,,Public,,public,,,SHOPPING_CENTER,,,,,,,Free,,,,,,,,,,
ELEC,The Westmoor Club - Tesla Destination,10  Westmoor Ln,,Nantucket,MA,02554,,508-228-9494  877-798-3752,E,,Public - Call ahead,24 hours daily; for member use only,,,,,,2,,,Tesla Destination,https://www.tesla.com/destination-charging,200-9,41.289226,-70.117217,2020-11-03,114350,2021-03-11 23:22:17 UTC,P,,,2015-12-01,,,,,TESLA,US,,,,Public - Appeler à l'avance,,public,CALL,,REC_SPORTS_FACILITY,,,,,,,Free,,,,,,,,,,
ELEC,Great Harbor Yacht Club - Tesla Destination,96 Washington St,,Nantucket,MA,02554,,508-325-5200  877-798-3752,E,,Public - Call ahead,24 hours daily; for member use only,,,,,,2,,,Tesla Destination,https://www.tesla.com/destination-charging,200-9,41.279088,-70.092471,2020-11-03,114351,2021-03-11 23:22:17 UTC,P,,,2015-11-01,,,,,TESLA,US,,,,Public - Appeler à l'avance,,public,CALL,,REC_SPORTS_FACILITY,,,,,,,Free,,,,,,,,,,
ELEC,Hampton Inn Boston/Peabody - Tesla Destination,59 Newbury St,,Peabody,MA,01960,,978-536-2020  877-798-3752,E,,Public - Call ahead,24 hours daily; for customer use only,,,,,,3,,,Tesla Destination,https://www.tesla.com/destination-charging,200-8,42.556176,-70.983555,2020-11-03,114352,2021-03-11 23:22:17 UTC,P,,,2017-03-01,,,,,J1772 TESLA,US,,,,Public - Appeler à l'avance,,public,CALL,,HOTEL,,,,,,,Free,,,,,,,,,,
ELEC,Mirbeau Inn & Spa at the Pinehills - Tesla Destination,35 Landmark Drive,,Plymouth,MA,02360,,508-209-2626  877-798-3752,E,,Public,24 hours daily; see front desk for access,,,,,,3,,,Tesla Destination,https://www.tesla.com/destination-charging,200-9,41.881215,-70.598159,2020-11-03,114353,2021-03-11 23:22:17 UTC,P,,,2015-12-01,,,,,J1772 TESLA,US,,,,Public,,public,,,INN,,,,,,,Free,,,,,,,,,,
ELEC,Sage Inn & Lounge - Tesla Destination,336 Commercial St,,Provincetown,MA,02494,,508-487-6424  877-798-3752,E,,Public,24 hours daily; for customer use only; see front desk for access,,,,,,3,,,Tesla Destination,https://www.tesla.com/destination-charging,200-9,42.053058,-70.185219,2020-11-03,114354,2021-03-11 23:22:17 UTC,P,,,2015-11-01,,,,,J1772 TESLA,US,,,,Public,,public,,,INN,,,,,,,Free,,,,,,,,,,
ELEC,Isaiah Jones Homestead Bed & Breakfast - Tesla Destination,165  Main Street,,Sandwich,MA,02563,,508-888-9115  877-798-3752,E,,Public,24 hours daily; see front desk for access,,,,,,2,,,Tesla Destination,https://www.tesla.com/destination-charging,200-9,41.757366,-70.495067,2020-11-03,114355,2021-03-11 23:22:17 UTC,P,,,2015-10-01,,,,,J1772 TESLA,US,,,,Public,,public,,,B_AND_B,,,,,,,Free,,,,,,,,,,
ELEC,The Orchards Hotel - Tesla Destination,222  Adams Rd,,Williamstown,MA,01267,,800-225-1517  877-798-3752,E,,Public,24 hours daily; for customer use only; see front desk for access,,,,,,3,,,Tesla Destination,https://www.tesla.com/destination-charging,200-8,42.705408,-73.191089,2020-11-03,114358,2021-03-11 23:22:17 UTC,P,,,2015-10-01,,,,,J1772 TESLA,US,,,,Public,,public,,,HOTEL,,,,,,,Free,,,,,,,,,,
ELEC,Mashpee Commons - Tesla Supercharger,22 Steeple Street,,Mashpee,MA,02649,,877-798-3752,E,,Public,24 hours daily; for Tesla use only,A D Debit M V,,,,,,10,,Tesla,https://www.tesla.com/supercharger,GPS,41.617554,-70.488139,2022-10-03,117726,2022-12-01 17:40:26 UTC,P,,,2018-12-01,,,,,TESLA,US,,,,Public,,public,,,SHOPPING_CENTER,,,,,,,$0.28 per kWh; $0.26 per minute above 60 kW and $0.13 per minute at or below 60 kW,,,,,,,,,,
ELEC,The Shops at Highland Commons - Tesla Supercharger,2 Highland Common East,,Hudson,MA,01749,,877-798-3752,E,,Public,24 hours daily; for Tesla use only,,,,,,,8,,Tesla,https://www.tesla.com/supercharger,200-8,42.395459,-71.595021,2022-10-03,122333,2022-12-01 17:40:26 UTC,P,,,2019-03-01,,,,,TESLA,US,,,,Public,,public,,,,,,,,,,$0.28 per kWh; $0.26 per minute above 60 kW and $0.13 per minute at or below 60 kW,,,,,,,,,,
ELEC,PB Boulangerie Bistro - Tesla Destination,15 Lecount Hollow Rd,,Wellfleet,MA,02663,,508-349-1600  877-798-3752,E,,Public,24 hours daily; for customer use only,,,,,,2,,,Tesla Destination,https://www.tesla.com/destination-charging,200-9,41.916958,-69.989771,2020-11-03,122445,2021-03-11 23:22:17 UTC,P,,,2019-03-01,,,,,TESLA,US,,,,Public,,public,,,,,,,,,,Free,,,,,,,,,,
ELEC,Van Ness Garage - Tesla Supercharger,1341 Boylston Street,,Boston,MA,02215,,877-798-3752,E,,Public,24 hours daily; for Tesla use only,,,,,,,8,,Tesla,https://www.tesla.com/supercharger,200-9,42.344903,-71.09933,2022-10-03,149297,2022-12-01 17:40:26 UTC,P,,,2019-09-30,,,,,TESLA,US,,,,Public,,public,,,,,,,,,,$0.28 per kWh; $0.26 per minute above 60 kW and $0.13 per minute at or below 60 kW,,,,,,,,,,
ELEC,South Shore Plaza - Tesla Supercharger,250 Granite Street,,Braintree,MA,02184,,877-798-3752,E,,Public,24 hours daily; for Tesla use only,,,,,,,8,,Tesla,https://www.tesla.com/supercharger,200-8,42.223016,-71.022012,2022-10-03,149298,2022-12-01 17:40:26 UTC,P,,,2019-09-30,,,,,TESLA,US,,,,Public,,public,,,,,,,,,,$0.28 per kWh; $0.26 per minute above 60 kW and $0.13 per minute at or below 60 kW,,,,,,,,,,
ELEC,Market Street - Lynnfield - Tesla Supercharger,600 Market St,,Lynnfield,MA,01940,,877-798-3752,E,,Public,24 hours daily; for Tesla use only,,,,,,,12,,Tesla,https://www.tesla.com/supercharger,200-9,42.516588,-71.032486,2022-10-03,149325,2022-12-01 17:40:26 UTC,P,,,2019-09-30,,,,,TESLA,US,,,,Public,,public,,,,,,,,,,$0.28 per kWh; $0.26 per minute above 60 kW and $0.13 per minute at or below 60 kW,,,,,,,,,,
ELEC,Dock Square Parking Garage - Tesla Destination,20 Clinton St,,Boston,MA,02109,,857-317-4293  877-798-3752,E,,Public,24 hours daily; pay lot,,,,,,8,,,Tesla Destination,https://www.tesla.com/destination-charging,200-9,42.360953,-71.054917,2020-11-03,150640,2021-03-11 23:22:17 UTC,P,,,2019-09-30,,,,,TESLA,US,,,,Public,,public,,,,,,,,,,Free,,,,,,,,,,
ELEC,Tree House Brewing Company - Tesla Destination,129 Sturbridge Rd,,Charlton,MA,01507,,413-523-2367  877-798-3752,E,,Public,24 hours daily,,,,,,5,,,Tesla Destination,https://www.tesla.com/destination-charging,200-8,42.138891,-72.01826,2020-11-03,150652,2021-03-11 23:22:17 UTC,P,,,2019-09-30,,,,,J1772 TESLA,US,,,,Public,,public,,,,,,,,,,Free,,,,,,,,,,
ELEC,Trillium Brewing Company - Tesla Destination,50 Hudson Rd,,Canton,MA,02021,,781-562-0073  877-798-3752,E,,Public,24 hours daily; for customer use only,,,,,,2,,,Tesla Destination,https://www.tesla.com/destination-charging,200-9,42.182894,-71.150799,2020-11-03,150702,2021-03-11 23:22:17 UTC,P,,,2019-09-30,,,,,TESLA,US,,,,Public,,public,,,,,,,,,,Free,,,,,,,,,,
ELEC,Wareham Crossing - Tesla Supercharger,2421 Cranberry HIghway,,Wareham,MA,02571,,877-798-3752,E,,Public,24 hours daily; for Tesla use only,,,,,,,12,,Tesla,https://www.tesla.com/supercharger,GPS,41.774457,-70.744046,2022-10-03,152627,2022-12-01 17:40:26 UTC,P,,,2020-01-20,,,,,TESLA,US,,,,Public,,public,,,SHOPPING_MALL,,,,,,,$0.28 per kWh; $0.26 per minute above 60 kW and $0.13 per minute at or below 60 kW,,,,,,,,,,
ELEC,Cranberry Cove Plaza - Tesla Supercharger,2110 Cranberry Highway,,Orleans,MA,02653,,877-798-3752,E,,Public,24 hours daily; for Tesla use only,,,,,,,12,,Tesla,https://www.tesla.com/supercharger,GPS,41.796653,-69.985964,2022-10-03,153431,2022-12-01 17:40:26 UTC,P,,,2020-01-31,,,,,TESLA,US,,,,Public,,public,,,,,,,,,,$0.28 per kWh; $0.26 per minute above 60 kW and $0.13 per minute at or below 60 kW,,,,,,,,,,
ELEC,The Street Chestnut Hill - Tesla Supercharger,55 Boylston Street,,Chestnut Hill,MA,02467,,877-798-3752,E,,Public,24 hours daily; for Tesla use only,,,,,,,8,,Tesla,https://www.tesla.com/supercharger,GPS,42.321989,-71.172424,2022-10-03,153449,2022-12-01 17:40:26 UTC,P,,,2020-01-31,,,,,TESLA,US,,,,Public,,public,,,,,,,,,,$0.28 per kWh; $0.26 per minute above 60 kW and $0.13 per minute at or below 60 kW,,,,,,,,,,
ELEC,The Shops at Suffolk Downs - Tesla Supercharger,40 Furlong Drive,,Revere,MA,02151,,877-798-3752,E,,Public,24 hours daily; for Tesla use only,,,,,,,8,,Tesla,https://www.tesla.com/supercharger,GPS,42.398457,-71.000222,2022-10-03,155504,2022-12-01 17:40:26 UTC,P,,,2020-04-14,,,,,TESLA,US,,,,Public,,public,,,SHOPPING_MALL,,,,,,,$0.28 per kWh; $0.26 per minute above 60 kW and $0.13 per minute at or below 60 kW,,,,,,,,,,
ELEC,Stop & Shop - Tesla Supercharger,425 Attucks Lane,,Hyannis,MA,02601,,877-798-3752,E,,Public,24 hours daily; for Tesla use only,,,,,,,12,,Tesla,https://www.tesla.com/supercharger,GPS,41.676617,-70.307105,2022-10-03,157975,2022-12-01 17:40:26 UTC,P,,,2020-05-22,,,,,TESLA,US,,,,Public,,public,,,GROCERY,,,,,,,$0.28 per kWh; $0.26 per minute above 60 kW and $0.13 per minute at or below 60 kW,,,,,,,,,,
ELEC,Big Y Class Market - Tesla Supercharger,700 Main Street Route 7,,Great Barrington,MA,01230,,877-798-3752,E,,Public,24 hours daily; for Tesla use only,,,,,,,8,,Tesla,https://www.tesla.com/supercharger,GPS,42.180949,-73.364744,2022-10-03,167285,2022-12-01 17:40:26 UTC,P,,,2020-09-28,,,,,TESLA,US,,,,Public,,public,,,SHOPPING_CENTER,,,,,,,$0.28 per kWh; $0.26 per minute above 60 kW and $0.13 per minute at or below 60 kW,,,,,,,,,,
ELEC,King Collision Centers - Tesla Destination,48 Holman Rd,,Plymouth,MA,02360,,877-798-3752  877-798-3752,E,,Public,24 hours daily; for customer use only; see front desk for access,,,,,,2,,,Tesla Destination,https://www.tesla.com/destination-charging,200-9,41.92889,-70.662043,2020-11-03,168910,2021-03-11 23:22:17 UTC,P,,,2020-11-03,,,,,TESLA,US,,,,Public,,public,,,,,,,,,,Free,,,,,,,,,,
ELEC,Matouk Factory Store - Tesla Destination,925 Airport Rd,,Fall River,MA,02720,,877-798-3752  877-798-3752,E,,Public,24 hours daily; for customer use only; see front desk for access,,,,,,2,,,Tesla Destination,https://www.tesla.com/destination-charging,200-9,41.746094,-71.110908,2020-11-03,168954,2021-03-11 23:22:17 UTC,P,,,2020-11-03,,,,,TESLA,US,,,,Public,,public,,,,,,,,,,Free,,,,,,,,,,
ELEC,Old Sandwich Golf Cub - Tesla Destination,41 Double Brook Rd,,Plymouth,MA,02360,,877-798-3752  877-798-3752,E,,Public,24 hours daily; for customer use only; see front desk for access,,,,,,2,,,Tesla Destination,https://www.tesla.com/destination-charging,200-9,41.907364,-70.604434,2020-11-03,168993,2021-03-11 23:22:17 UTC,P,,,2020-11-03,,,,,TESLA,US,,,,Public,,public,,,,,,,,,,Free,,,,,,,,,,
ELEC,The Captains Manor Inn - Tesla Destination,27 W Main Street,,Falmouth,MA,02540,,877-798-3752  877-798-3752,E,,Public,24 hours daily; for customer use only; see front desk for access,,,,,,1,,,Tesla Destination,https://www.tesla.com/destination-charging,200-9,41.554313,-70.620847,2020-11-03,169168,2021-03-11 23:22:17 UTC,P,,,2020-11-03,,,,,TESLA,US,,,,Public,,public,,,,,,,,,,Free,,,,,,,,,,
ELEC,"The Ritz-Carlton, Boston - Tesla Destination",2 Avery St,,Boston,MA,02111,,877-798-3752  877-798-3752,E,,Public,24 hours daily; for customer use only; see front desk for access,,,,,,10,,,Tesla Destination,https://www.tesla.com/destination-charging,200-9,42.353084,-71.062843,2020-11-03,169197,2021-03-11 23:22:17 UTC,P,,,2020-11-03,,,,,J1772 TESLA,US,,,,Public,,public,,,,,,,,,,Free,,,,,,,,,,
ELEC,University of Massachusetts Medical School - Tesla Destination,55 N Lake Ave,,Worcester,MA,01655,,877-798-3752  877-798-3752,E,,Public,24 hours daily; for customer use only; see front desk for access,,,,,,3,,,Tesla Destination,https://www.tesla.com/destination-charging,200-8,42.278255,-71.759382,2020-11-03,169234,2021-03-11 23:22:17 UTC,P,,,2020-11-03,,,,,TESLA,US,,,,Public,,public,,,,,,,,,,Free,,,,,,,,,,
ELEC,Williams Distributing Company - Tesla Destination,880 Burnett Road,,Chicopee,MA,01020,,877-798-3752  877-798-3752,E,,Public,24 hours daily; for customer use only; see front desk for access,,,,,,4,,,Tesla Destination,https://www.tesla.com/destination-charging,200-9,42.176754,-72.531569,2020-11-03,169270,2021-03-11 23:22:17 UTC,P,,,2020-11-03,,,,,TESLA,US,,,,Public,,public,,,,,,,,,,Free,,,,,,,,,,
ELEC,The Point - Tesla Supercharger,812 Constitution Avenue,,Littleton,MA,01460,,877-798-3752,E,,Public,24 hours daily; for Tesla use only,,,,,,,12,,Tesla,https://www.tesla.com/supercharger,GPS,42.553111,-71.473878,2022-10-03,186868,2022-12-01 17:40:26 UTC,P,,,2021-03-29,,,,,TESLA,US,,,,Public,,public,,,SHOPPING_CENTER,,,,,,,$0.28 per kWh; $0.26 per minute above 60 kW and $0.13 per minute at or below 60 kW,,,,,,,,,,
ELEC,Charlton Service Plaza Westbound - Tesla Supercharger,6 Massachusetts Turnpike,,Charlton,MA,01507,,877-798-3752,E,,Public,24 hours daily; for Tesla use only,,,,,,,8,,Tesla,https://www.tesla.com/supercharger,GPS,42.156766,-71.96292,2022-10-03,191097,2022-12-01 17:40:26 UTC,P,,,2021-06-15,,,,,TESLA,US,,,,Public,,public,,,TRAVEL_CENTER,,,,,,,$0.28 per kWh; $0.26 per minute above 60 kW and $0.13 per minute at or below 60 kW,,,,,,,,,,
ELEC,Charlton Service Plaza Eastbound - Tesla Supercharger,Mile Marker 80 Eastbound Mass Turnpike,,Charlton,MA,01507,,877-798-3752,E,,Public,24 hours daily; for Tesla use only,,,,,,,8,,Tesla,https://www.tesla.com/supercharger,GPS,42.139213,-72.025739,2022-10-03,191098,2022-12-01 17:40:26 UTC,P,,,2021-06-15,,,,,TESLA,US,,,,Public,,public,,,TRAVEL_CENTER,,,,,,,$0.28 per kWh; $0.26 per minute above 60 kW and $0.13 per minute at or below 60 kW,,,,,,,,,,
ELEC,Lexington Service Plaza Northbound - Tesla Supercharger,690 Marrett Road,,Lexington,MA,02421,,877-798-3752,E,,Public,24 hours daily; for Tesla use only,A D Debit M V,,,,,,8,,Tesla,https://www.tesla.com/supercharger,GPS,42.439688,-71.257964,2022-10-03,196517,2022-12-01 17:40:26 UTC,P,,,2021-09-24,,,,,TESLA,US,,,,Public,,public,,,TRAVEL_CENTER,,,,,,,$0.28 per kWh; $0.26 per minute above 60 kW and $0.13 per minute at or below 60 kW,,,,,,,,,,
ELEC,Target - Tesla Supercharger,1 Hawes Way,,Stoughton,MA,02072,,877-798-3752,E,,Public,24 hours daily; for Tesla use only,A D Debit M V,,,,,,12,,Tesla,https://www.tesla.com/supercharger,GPS,42.152891,-71.073529,2022-10-03,197419,2022-12-01 17:40:26 UTC,P,,,2021-09-30,,,,,TESLA,US,,,,Public,,public,,,SHOPPING_CENTER,,,,,,,$0.28 per kWh; $0.26 per minute above 60 kW and $0.13 per minute at or below 60 kW,,,,,,,,,,
ELEC,Target - Tesla Supercharger,101 Commerce Way,,Woburn,MA,01801,,877-798-3752,E,,Public,24 hours daily; for Tesla use only,A D Debit M V,,,,,,12,,Tesla,https://www.tesla.com/supercharger,GPS,42.518411,-71.137207,2022-10-03,200614,2022-12-01 17:40:26 UTC,P,,,2021-10-29,,,,,TESLA,US,,,,Public,,public,,,SHOPPING_CENTER,,,,,,,$0.28 per kWh; $0.26 per minute above 60 kW and $0.13 per minute at or below 60 kW,,,,,,,,,,false
ELEC,Big Y World Class Market - Tesla Supercharger,650 Memorial Drive,,Chicopee,MA,01020,,877-798-3752,E,,Public,24 hours daily; for Tesla use only,A D Debit M V,,,,,,12,,Tesla,https://www.tesla.com/supercharger,GPS,42.174935,-72.578197,2022-10-03,200863,2022-12-01 17:40:26 UTC,P,,,2021-10-27,,,,,TESLA,US,,,,Public,,public,,,SHOPPING_CENTER,,,,,,,$0.28 per kWh; $0.26 per minute above 60 kW and $0.13 per minute at or below 60 kW,,,,,,,,,,false
ELEC,Franklin Village Plaza - Tesla Supercharger,250 Franklin Village Drive,,Franklin,MA,02038,,877-798-3752,E,,Public,24 hours daily; for Tesla use only,A D Debit M V,,,,,,12,,Tesla,https://www.tesla.com/supercharger,GPS,42.090421,-71.424898,2022-10-03,202625,2022-12-01 17:40:26 UTC,P,,,2021-12-13,,,,,TESLA,US,,,,Public,,public,,,SHOPPING_CENTER,,,,,,,$0.28 per kWh; $0.26 per minute above 60 kW and $0.13 per minute at or below 60 kW,,,,,,,,,,false
ELEC,Neon Marketplace - Tesla Supercharger,965 Fall River Avenue,,Seekonk,MA,02771,,877-798-3752,E,,Public,24 hours daily; for Tesla use only,A D Debit M V,,,,,,8,,Tesla,https://www.tesla.com/supercharger,GPS,41.79915,-71.331034,2022-10-03,205808,2022-12-01 17:40:26 UTC,P,,,2022-02-04,,,,,TESLA,US,,,,Public,,public,,,GAS_STATION,,,,,,,$0.28 per kWh; $0.26 per minute above 60 kW and $0.13 per minute at or below 60 kW,,,,,,,,,,false
ELEC,Stop & Shop - Tesla Supercharger,779 McGrath Highway,,Somerville,MA,02145,,877-798-3752,E,,Public,24 hours daily; for Tesla use only,A D Debit M V,,,,,,8,,Tesla,https://www.tesla.com/supercharger,GPS,42.390584,-71.086001,2022-10-03,214071,2022-12-01 17:40:26 UTC,P,,,2022-03-31,,,,,TESLA,US,,,,Public,,public,,,GROCERY,,,,,,,$0.28 per kWh; $0.26 per minute above 60 kW and $0.13 per minute at or below 60 kW,,,,,,,,,,false
ELEC,Dartmouth Towne Center Shopping Mall - Tesla Supercharger,83 Faunce Corner Mall Road,,Dartmouth,MA,02747,,877-798-3752,E,,Public,24 hours daily; for Tesla use only,A D Debit M V,,,,,,12,,Tesla,https://www.tesla.com/supercharger,GPS,41.640722,-70.996,2022-10-03,218658,2022-12-01 17:40:26 UTC,P,,,2022-05-14,,,,,TESLA,US,,,,Public,,public,,,SHOPPING_CENTER,,,,,,,$0.28 per kWh; $0.26 per minute above 60 kW and $0.13 per minute at or below 60 kW,,,,,,,,,,false
ELEC,Hanover Crossing - Tesla Supercharger,1775 Washington Street,,Hanover,MA,02359,,877-798-3752,E,,Public,24 hours daily; for Tesla use only,A D Debit M V,,,,,,12,,Tesla,https://www.tesla.com/supercharger,GPS,42.147722,-70.841694,2022-10-03,222801,2022-12-01 17:40:26 UTC,P,,,2022-07-01,,,,,TESLA,US,,,,Public,,public,,,GROCERY,,,,,,,$0.28 per kWh; $0.26 per minute above 60 kW and $0.13 per minute at or below 60 kW,,,,,,,,,,false
ELEC,Burlington Mall - Tesla Supercharger,75 Middlesex Turnpike,,Burlington,MA,01803,,877-798-3752,E,,Public,24 hours daily; for Tesla use only,A D Debit M V,,,,,,12,,Tesla,https://www.tesla.com/supercharger,GPS,42.483562,-71.216703,2022-10-03,224995,2022-12-01 17:40:26 UTC,P,,,2022-08-01,,,,,TESLA,US,,,,Public,,public,,,SHOPPING_MALL,,,,,,,$0.28 per kWh; $0.26 per minute above 60 kW and $0.13 per minute at or below 60 kW,,,,,,,,,,false
ELEC,The 440 - Tesla Supercharger,440 Middlesex Road,,Tyngsborough,MA,01879,,877-798-3752,E,,Public,24 hours daily; for Tesla use only,A D Debit M V,,,,,,12,,Tesla,https://www.tesla.com/supercharger,GPS,42.697284,-71.439877,2022-10-03,226534,2022-12-01 17:40:26 UTC,P,,,2022-08-25,,,,,TESLA,US,,,,Public,,public,,,PARKING_LOT,,,,,,,$0.28 per kWh; $0.26 per minute above 60 kW and $0.13 per minute at or below 60 kW,,,,,,,,,,false
ELEC,Cumberland Farms - Tesla Supercharger,163 Patriots Rd,,Templeton,MA,01468,,877-798-3752,E,,Public,24 hours daily; for Tesla use only,A D Debit M V,,,,,,8,,Tesla,https://www.tesla.com/supercharger,GPS,42.561167,-72.0407787,2022-10-03,227706,2022-12-01 17:40:26 UTC,P,,,2022-09-12,,,,,TESLA,US,,,,Public,,public,,,GAS_STATION,,,,,,,$0.28 per kWh; $0.26 per minute above 60 kW and $0.13 per minute at or below 60 kW,,,,,,,,,,false
ELEC,Gloucester Crossing - Tesla Supercharger,231 Gloucester Crossing Road,,Gloucester,MA,01930,,877-798-3752,E,,Public,24 hours daily; for Tesla use only,A D Debit M V,,,,,,8,,Tesla,https://www.tesla.com/supercharger,GPS,42.623414,-70.654457,2022-10-03,231698,2022-12-01 17:40:26 UTC,P,,,2022-09-28,,,,,TESLA,US,,,,Public,,public,,,SHOPPING_CENTER,,,,,,,$0.28 per kWh; $0.26 per minute above 60 kW and $0.13 per minute at or below 60 kW,,,,,,,,,,false
ELEC,Chocolate Springs Café - Tesla Supercharger,55 Pittsfield Rd,,Lenox,MA,01240,,877-798-3752,E,,Public,24 hours daily,A D Debit M V,,,,,,16,,Tesla,https://www.tesla.com/supercharger,GPS,42.377028,-73.277352,,237645,2022-12-09 00:11:33 UTC,P,,,2022-11-18,,,,,TESLA,US,,,,Public,,public,,,PARKING_LOT,,,,,,,,,,,,,,,,,false
